<?xml version='1.0' encoding='UTF-8'?>
<kml xmlns='http://www.opengis.net/kml/2.2'>
	<Document>
		<name>United Invitations</name>
		<description><![CDATA[A map of where dinner initiatives are being organized. Take contact with them directly and offer your time as a host or guest. Bon appetite!]]></description>
		<Folder>
			<name>Active chapters</name>
			<Placemark>
				<name>Stockholm</name>
				<description><![CDATA[Anmäl dig här <a href="http://app.invitationsdepartementet.se/signup/stockholm">app.invitationsdepartementet.se/signup/stockholm</a>]]></description>
				
				<Point>
					<coordinates>18.0683899,59.32968699999999,0.0</coordinates>
				</Point>
			</Placemark>
			<Placemark>
				<name>Eksjö</name>
				<description><![CDATA[För middagar kontakta Bia på eksjo@invitationsdepartementet.eu  Facebook: https://www.facebook.com/Invitationsdepartementet-i-Eksj%C3%B6-380177768803631/?fref=ts]]></description>
				
				<Point>
					<coordinates>14.972476999999998,57.664871,0.0</coordinates>
				</Point>
			</Placemark>
			<Placemark>
				<name>Göteborg</name>
				<description><![CDATA[För middagar anmäl dig på http://tinyurl.com/kdmp9o5 .                                  För kontakt maila Mia på goteborg@invitationsdepartementet.se Facebook: https://www.facebook.com/invitationsdepartementet.gbg/?fref=ts]]></description>
				
				<Point>
					<coordinates>11.9723511,57.69974450000001,0.0</coordinates>
				</Point>
			</Placemark>
			<Placemark>
				<name>Jönköping</name>
				<description><![CDATA[För middagar kontakta Carl på jonkoping@invitationsdepartementet.eu  Facebook: https://www.facebook.com/Invitationsdepartementet-J%C3%B6nk%C3%B6ping-1571593743064320/?fref=ts]]></description>
				
				<Point>
					<coordinates>14.159317,57.77817889999999,0.0</coordinates>
				</Point>
			</Placemark>
			<Placemark>
				<name>Härnösand</name>
				<description><![CDATA[För middagar: https://invitharnosand.wordpress.com/          Eller kontakta Monica, Stefan, Kärstin på harnosand@invitationsdepartementet.eu  Facebook: https://www.facebook.com/invitationharnosand/?fref=ts]]></description>
				
				<Point>
					<coordinates>17.9406738,62.63156010000001,0.0</coordinates>
				</Point>
			</Placemark>
			<Placemark>
				<name>Örebro</name>
				<description><![CDATA[För middagar anmäl: https://app.invitationsdepartementet.se/signup/orebro  Kontakta Fredrik på  orebro@invitationsdepartementet.se Web: http://invitationorebro.blogspot.se/  Facebook: https://www.facebook.com/invitationorebero/?fref=ts  ]]></description>
				
				<Point>
					<coordinates>15.2222443,59.27570479999999,0.0</coordinates>
				</Point>
			</Placemark>
			<Placemark>
				<name>Falun</name>
				<description><![CDATA[För tillfället inga middagar. Vi söker en ny middagsambassadör!  Mer info på: https://www.facebook.com/Invitationsdepartementet-Falun-316673261863194/timeline/  ]]></description>
				
				<Point>
					<coordinates>15.636634800000001,60.60567720000001,0.0</coordinates>
				</Point>
			</Placemark>
			<Placemark>
				<name>Zürich</name>
				<description><![CDATA[For dinners contact: gemeinsamznacht@solinetz-zh.ch  http://www.gemeinsamznacht.ch/ Facebook: https://www.facebook.com/gemeinsamznacht/?fref=ts]]></description>
				
				<Point>
					<coordinates>8.5377502,47.3685943,0.0</coordinates>
				</Point>
			</Placemark>
			<Placemark>
				<name>München</name>
				<description><![CDATA[For dinners get in touch via: http://abendesser-connection.de]]></description>
				
				<Point>
					<coordinates>11.5802765,48.1331007,0.0</coordinates>
				</Point>
			</Placemark>
			<Placemark>
				<name>Sollefteå</name>
				<description><![CDATA[För middagar kontakta Stina stina.naslund@abf.se]]></description>
				
				<Point>
					<coordinates>17.2794342,63.1644311,0.0</coordinates>
				</Point>
			</Placemark>
			<Placemark>
				<name>Berlin</name>
				<description><![CDATA[For dinners get in touch via: https://www.facebook.com/welcomedinnerberlin or mahlzusammen@gmail.com or https://www.facebook.com/mahlzusammen or gemeinsam.essen.in.berlin@gmail.com ]]></description>
				
				<Point>
					<coordinates>13.3992004,52.51204220000001,0.0</coordinates>
				</Point>
			</Placemark>
			<Placemark>
				<name>Partille</name>
				<description><![CDATA[För middagar kontakta Sigbritt.Andreasson@partille.se]]></description>
				
				<Point>
					<coordinates>12.1282196,57.7375169,0.0</coordinates>
				</Point>
			</Placemark>
			<Placemark>
				<name>Ulm</name>
				<description><![CDATA[For dinners get in touch via  einladung-zum-essen@web.de]]></description>
				
				<Point>
					<coordinates>9.9961853,48.3954735,0.0</coordinates>
				</Point>
			</Placemark>
			<Placemark>
				<name>Athens</name>
				<description><![CDATA[Visit http://options.limited and get in touch through we@options.limited]]></description>
				
				<Point>
					<coordinates>23.7266922,37.982363,0.0</coordinates>
				</Point>
			</Placemark>
			<Placemark>
				<name>Markdorf </name>
				<description><![CDATA[For dinners get in touch via Komm-essen@mgh-markdorf.de or look for Komm Essen on Facebook]]></description>
				
				<Point>
					<coordinates>9.3864441,47.710685600000005,0.0</coordinates>
				</Point>
			</Placemark>
			<Placemark>
				<name>Dornbirn</name>
				<description><![CDATA[For dinners get in touch via: tanja.kuen@gmx.net]]></description>
				
				<Point>
					<coordinates>9.746933,47.4132203,0.0</coordinates>
				</Point>
			</Placemark>
			<Placemark>
				<name>Salzburg</name>
				<description><![CDATA[For dinners get in touch via:  Beauftragtencenter@stadt-salzburg.at or phone 0043 – (0)662 – 8072 - 2046 or https://www.facebook.com/pages/Miteinander-essen/406331739536796?ref=aymt_homepage_panel]]></description>
				
				<Point>
					<coordinates>13.0531311,47.8085431,0.0</coordinates>
				</Point>
			</Placemark>
			<Placemark>
				<name>Winsen</name>
				<description><![CDATA[For dinners get in touch with Markus through internationales.cafe.winsen@t-online.de Website:<br>http://www.st-marien-winsen.de/int-cafe    Facebook:<br>https://www.facebook.com/int.cafe.winsen]]></description>
				
				<Point>
					<coordinates>10.2145386,53.3554695,0.0</coordinates>
				</Point>
			</Placemark>
			<Placemark>
				<name>Köln</name>
				<description><![CDATA[For dinners get in touch via http://welcome-dinner.koeln/en Facebook: https://www.facebook.com/welcomedinnerkoeln?fref=ts]]></description>
				
				<Point>
					<coordinates>6.9612122,50.9354982,0.0</coordinates>
				</Point>
			</Placemark>
			<Placemark>
				<name>Fürth</name>
				<description><![CDATA[For dinners get in touch with Beatrice at gastgeber@fluechtlinge-fuerth.de]]></description>
				
				<Point>
					<coordinates>10.9873581,49.4750402,0.0</coordinates>
				</Point>
			</Placemark>
			<Placemark>
				<name>Hamburg</name>
				<description><![CDATA[For dinners get in touch via welcomedinnerhh@gmail.com or via Facebook Welcome Dinner Hamburg https://www.facebook.com/welcomedinners?fref=ts]]></description>
				
				<Point>
					<coordinates>10.0057983,53.532962,0.0</coordinates>
				</Point>
			</Placemark>
			<Placemark>
				<name>Hyltebruk</name>
				<description><![CDATA[För middagar kontakta anmäl på https://app.invitationsdepartementet.se/signup/hyltebruk För frågor kontakta Pär: hyltebruk@invitationsdepartementet.eu Facebook: https://www.facebook.com/invitationsdepartementethyltebruk?fref=ts]]></description>
				
				<Point>
					<coordinates>13.2433319,57.0014849,0.0</coordinates>
				</Point>
			</Placemark>
			<Placemark>
				<name>Dresden</name>
				<description><![CDATA[Sign up for dinenrs: http://einladungsamt-dresden.jimdo.com/  Facebook: https://www.facebook.com/einladungsamtdresden?fref=ts or ]]></description>
				
				<Point>
					<coordinates>13.737262099999953,51.0504088,0.0</coordinates>
				</Point>
			</Placemark>
			<Placemark>
				<name>Linköping</name>
				<description><![CDATA[För middagar kontakta Sandra middagsklubben.linkoping@redcross.se]]></description>
				
				<Point>
					<coordinates>15.621372699999938,58.41080700000001,0.0</coordinates>
				</Point>
			</Placemark>
			<Placemark>
				<name>Finspång</name>
				<description><![CDATA[Inga middagar ordnas just nu. Vi letar efter någon som vill driva Invitationsdepartementet i Finspång. Intresserad? Maila: malcolm@invitationsdepartementet.se]]></description>
				
				<Point>
					<coordinates>15.773595,58.70748840000001,0.0</coordinates>
				</Point>
			</Placemark>
			<Placemark>
				<name>Vienna</name>
				<description><![CDATA[For dinners get in touch via: tischgespraeche@gmail.com and find out more on tumblr: http://tischgespraeche.tumblr.com/ Facebook: https://www.facebook.com/groups/1387214531604447/ and instagram: tischgespraeche]]></description>
				
				<Point>
					<coordinates>16.377182,48.2237577,0.0</coordinates>
				</Point>
			</Placemark>
			<Placemark>
				<name>Potsdam</name>
				<description><![CDATA[For dinners get in touch via http://www.einladungsinstitut-potsdam.de/ And by email: kontakt@einladungsinstitut-potsdam.de]]></description>
				
				<Point>
					<coordinates>13.0620575,52.3994863,0.0</coordinates>
				</Point>
			</Placemark>
			<Placemark>
				<name>Norrköping</name>
				<description><![CDATA[För middagar anmäl dig på https://invitationsdepartementet.wordpress.com/ eller https://www.facebook.com/idnkpg? Frågor? Kontakta norrkoping@invitationsdepartementet.eu]]></description>
				
				<Point>
					<coordinates>16.192420999999968,58.587745,0.0</coordinates>
				</Point>
			</Placemark>
			<Placemark>
				<name>Umeå</name>
				<description><![CDATA[För middagar kontakta Inger  umea@invitationsdepartementet.se Facebook: https://www.facebook.com/invitationsdepartementetumea/?fref=ts]]></description>
				
				<Point>
					<coordinates>20.263035400000035,63.8258471,0.0</coordinates>
				</Point>
			</Placemark>
			<Placemark>
				<name>Uddevalla</name>
				<description><![CDATA[För middagar kontakta Helene på kurviga69@gmail.com]]></description>
				
				<Point>
					<coordinates>11.935649000000012,58.3498003,0.0</coordinates>
				</Point>
			</Placemark>
			<Placemark>
				<name>Bonn</name>
				<description><![CDATA[For dinners visit http://ichladedichein.org/  Facebook: https://www.facebook.com/ichladedicheinbonn/?fref=ts]]></description>
				
				<Point>
					<coordinates>7.098206800000071,50.73743,0.0</coordinates>
				</Point>
			</Placemark>
			<Placemark>
				<name>Jena</name>
				<description><![CDATA[For dinners get in touch via: http://welcomedinnerjena.wix.com/home          Contact: <br>welcomedinnerjena@gmail.com <br>Facebook: www.facebook.com/welcomedinnerjena]]></description>
				
				<Point>
					<coordinates>11.58923720000007,50.927054,0.0</coordinates>
				</Point>
			</Placemark>
			<Placemark>
				<name>Stuttgart</name>
				<description><![CDATA[For dinners get in touch via http://welcome-dinner-stuttgart.de/ Facebook: http://www.facebook.com/WelcomeDinnerStuttgart]]></description>
				
				<Point>
					<coordinates>9.182932100000016,48.7758459,0.0</coordinates>
				</Point>
			</Placemark>
			<Placemark>
				<name>Edewecht</name>
				<description><![CDATA[For dinners sign up at: www.welcome-dinner-edewecht.de<br>Facebook: https://www.facebook.com/welcomedinneredewecht]]></description>
				
				<Point>
					<coordinates>7.983006199999978,53.1261691,0.0</coordinates>
				</Point>
			</Placemark>
			<Placemark>
				<name>Kristianstad</name>
				<description><![CDATA[Kristianstad söker en ny ambassadör som vill ta över efter Olof. Hör av dig till malcolm@invitationsdepartementet.se om du vill veta mer! ]]></description>
				
				<Point>
					<coordinates>14.156677800000011,56.0293936,0.0</coordinates>
				</Point>
			</Placemark>
			<Placemark>
				<name>Bruxelles</name>
				<description><![CDATA[For dinners sign up:  http://dinewithus.strikingly.com/                            Facebook: https://www.facebook.com/DineWithUsBe/?fref=ts]]></description>
				
				<Point>
					<coordinates>4.351710300000036,50.8503396,0.0</coordinates>
				</Point>
			</Placemark>
			<Placemark>
				<name>Ghent</name>
				<description><![CDATA[For dinners sign up at:    http://dinewithus.strikingly.com/                            Facebook: https://www.facebook.com/DineWithUsBe/?fref=ts]]></description>
				
				<Point>
					<coordinates>3.717424299999948,51.0543422,0.0</coordinates>
				</Point>
			</Placemark>
			<Placemark>
				<name>Mainz</name>
				<description><![CDATA[For dinners get in touch via: welcomedinnermainz@gmail.com Website: http://welcomedinnermainz.blogspot.de/ Facebook: https://www.facebook.com/welcomedinnermainz]]></description>
				
				<Point>
					<coordinates>8.247252600000024,49.9928617,0.0</coordinates>
				</Point>
			</Placemark>
			<Placemark>
				<name>Västerås</name>
				<description><![CDATA[För middagar kontakta Maria på  invitationsdepartementet021@gmail.com  Facebook: https://www.facebook.com/Invitationsdepartementet-V%C3%A4ster%C3%A5s-891480500886138/?fref=ts]]></description>
				
				<Point>
					<coordinates>16.544809100000066,59.60990049999998,0.0</coordinates>
				</Point>
			</Placemark>
			<Placemark>
				<name>Nynäshamn</name>
				<description><![CDATA[För middagar kontakta Mikaela på  mikaela@vazquez.se.]]></description>
				
				<Point>
					<coordinates>17.946528899999976,58.90292600000001,0.0</coordinates>
				</Point>
			</Placemark>
			<Placemark>
				<name>Skivarp</name>
				<description><![CDATA[För middagar kontakta Johan på info@ueb.nu]]></description>
				
				<Point>
					<coordinates>13.570973699999968,55.4227644,0.0</coordinates>
				</Point>
			</Placemark>
			<Placemark>
				<name>Lysekil</name>
				<description><![CDATA[För middagar kontakta Cheyenne på cheyenne@radiosmd.se  Facebook: https://www.facebook.com/Invitationsdepartementet-i-Lysekil-762172963886588/?fref=ts]]></description>
				
				<Point>
					<coordinates>11.435558000000015,58.27557299999999,0.0</coordinates>
				</Point>
			</Placemark>
			<Placemark>
				<name>Malmö</name>
				<description><![CDATA[För middagar anmäl på: http://app.invitationsdepartementet.se/signup/malmo För frågor maila Daniel & Co.:  malmo@invitationsdepartementet.se  Facebook: https://www.facebook.com/invitationsdepartementetmalmo/?fref=ts]]></description>
				
				<Point>
					<coordinates>13.003822000000014,55.604981,0.0</coordinates>
				</Point>
			</Placemark>
			<Placemark>
				<name>Höör</name>
				<description><![CDATA[För middagar kontakta  Lisa på hoor@invitationsdepartementet.se  Facebook: https://www.facebook.com/invitationsdepartementethoor/?fref=ts]]></description>
				
				<Point>
					<coordinates>13.539590399999952,55.9348588,0.0</coordinates>
				</Point>
			</Placemark>
			<Placemark>
				<name>Lund</name>
				<description><![CDATA[För middagar anmäl på: https://app.invitationsdepartementet.se/signup/lund   För kontakt maila Johanna på lund@invitationsdepartementet.se  Facebook: https://www.facebook.com/invitationsdepartementetlund/?fref=ts]]></description>
				
				<Point>
					<coordinates>13.191007300000024,55.7046601,0.0</coordinates>
				</Point>
			</Placemark>
			<Placemark>
				<name>Düsseldorf</name>
				<description><![CDATA[For dinners visit:    hi@welcome-dinner-duesseldorf.de  Facebook: www.facebook.com/welcomedinnerduesseldorf]]></description>
				
				<Point>
					<coordinates>6.773455600000034,51.2277411,0.0</coordinates>
				</Point>
			</Placemark>
			<Placemark>
				<name>Tierp</name>
				<description><![CDATA[För middagar kontakta Isabelle på tierp@invitationsdepartementet.se  Facebook: https://www.facebook.com/invitationsdepartementetTierp/?fref=ts]]></description>
				
				<Point>
					<coordinates>17.516906000000063,60.3458956,0.0</coordinates>
				</Point>
			</Placemark>
			<Placemark>
				<name>Uppsala</name>
				<description><![CDATA[För middagar kontakta Magnus och Caroline på  uppsala@invitationsdepartementet.se  Facebook: https://www.facebook.com/iduppsala/?fref=ts]]></description>
				
				<Point>
					<coordinates>17.638926699999956,59.85856380000002,0.0</coordinates>
				</Point>
			</Placemark>
			<Placemark>
				<name>Mariehamn</name>
				<description><![CDATA[För middagar anmäl dig här: https://docs.google.com/forms/d/1NGoSK0LGgjxg1WMPBJortbG7U55U215FCx_Royi6HXI/viewform?c=0&w=1&usp=send_form Kontakt Siv och Effie på info@kompassen.ax ]]></description>
				
				<Point>
					<coordinates>19.934833900000058,60.097094500000004,0.0</coordinates>
				</Point>
			</Placemark>
			<Placemark>
				<name>London</name>
				<description><![CDATA[Get in touch with <a href="mailto:sandyerrestad@gmail.com">sandyerrestad@gmail.com</a>]]></description>
				
				<Point>
					<coordinates>-0.12775829999998223,51.5073509,0.0</coordinates>
				</Point>
			</Placemark>
			<Placemark>
				<name>Aachen</name>
				<description><![CDATA[Contact <a href="www.welcome-dinner-aachen.de">www.welcome-dinner-aachen.de</a>]]></description>
				
				<Point>
					<coordinates>6.083886799999959,50.7753455,0.0</coordinates>
				</Point>
			</Placemark>
			<Placemark>
				<name>Lüneburg</name>
				<description>Dinners happening! Find out more via http://www.welcome-dinner-lg.de/</description>
				
				<Point>
					<coordinates>10.411517900000035,53.2464214,0.0</coordinates>
				</Point>
			</Placemark>
			<Placemark>
				<name>Ängelholm</name>
				<description><![CDATA[För middagar anmäl dig till Linda här: http://www.engelholm.se/Omsorg-hjalp/Ny-i-Sverige/Sa-har-kan-du-hjalpa/Bjud-en-likasinnad-pa-middag/]]></description>
				
				<Point>
					<coordinates>12.863880999999992,56.245748,0.0</coordinates>
				</Point>
			</Placemark>
			<Placemark>
				<name>Buchs</name>
				<description><![CDATA[Dinners happening! WelcomeDinner@werdenberg.ch]]></description>
				
				<Point>
					<coordinates>9.470859399999995,47.16554029999999,0.0</coordinates>
				</Point>
			</Placemark>
			<Placemark>
				<name>Hannover</name>
				<description><![CDATA[Dinners happening! http://www.welcome-dinner-hannover.de/  Facebook: www.facebook.com/welcome.dinner.hannover]]></description>
				
				<Point>
					<coordinates>9.732010400000036,52.3758916,0.0</coordinates>
				</Point>
			</Placemark>
			<Placemark>
				<name>Jokkmokk</name>
				<description><![CDATA[För middagar kontakta Elina: jokkmokk@invitationsdepartementet.se]]></description>
				
				<Point>
					<coordinates>19.822920599999975,66.60696089999999,0.0</coordinates>
				</Point>
			</Placemark>
			<Placemark>
				<name>Karlstad</name>
				<description><![CDATA[För middagar kontakta Helena: karlstad@invitationsdepartementet.se  Facebook: https://www.facebook.com/ikk2015/?fref=ts]]></description>
				
				<Point>
					<coordinates>13.511497700000064,59.4021806,0.0</coordinates>
				</Point>
			</Placemark>
			<Placemark>
				<name>Oslo</name>
				<description><![CDATA[Dinners happening! Sign up: https://docs.google.com/forms/d/1JPy11ouXMA2iY8WHHF_woULEy81Hzl4p-fo91e8nFB8/viewform Facebook: https://www.facebook.com/Kom-inn-L%C3%A6r-norsk-rundt-middagsbordet-1626833260885681/?fref=ts]]></description>
				
				<Point>
					<coordinates>10.752245399999993,59.913868799999996,0.0</coordinates>
				</Point>
			</Placemark>
			<Placemark>
				<name>Kiel</name>
				<description><![CDATA[Dinners www.welcomedinner-Kiel.de or via <br>http://facebook.com/welcomedinnerkiel]]></description>
				
				<Point>
					<coordinates>10.122765200000003,54.3232927,0.0</coordinates>
				</Point>
			</Placemark>
			<Placemark>
				<name>Borås</name>
				<description><![CDATA[För middagar anmäl på: https://app.invitationsdepartementet.se/signup/boras  För frågor kontakta Ellen och Linda på boras@invitationsdepartementet.se  Facebook: https://www.facebook.com/invitationsdepartementetboras/?fref=ts]]></description>
				
				<Point>
					<coordinates>12.939818999999945,57.72103500000001,0.0</coordinates>
				</Point>
			</Placemark>
			<Placemark>
				<name>Kirchheim (T)</name>
				<description><![CDATA[Get in touch trough tueroeffner@fjbm-bruderhausdiakonie.de]]></description>
				
				<Point>
					<coordinates>9.443753300000026,48.6444579,0.0</coordinates>
				</Point>
			</Placemark>
			<Placemark>
				<name>Basel</name>
				<description><![CDATA[For dinners:  http://www.k5kurszentrum.ch/index.php/news-lesen/items/gast-schafft-freund-58.html]]></description>
				
				<Point>
					<coordinates>7.588576099999954,47.55959860000001,0.0</coordinates>
				</Point>
			</Placemark>
			<Placemark>
				<name>Värnamo</name>
				<description><![CDATA[För middagar kontakta Dan på: varnamo@invitationsdepartementet.se]]></description>
				
				<Point>
					<coordinates>14.047821399999975,57.1831605,0.0</coordinates>
				</Point>
			</Placemark>
			<Placemark>
				<name>Skellefteå</name>
				<description><![CDATA[För middagar anmäl på https://app.invitationsdepartementet.se/signup/skelleftea För frågor kontakta Malin på: skelleftea@invitationsdepartementet.se  Facebook: https://www.facebook.com/groups/middagskelleftea/?fref=ts]]></description>
				
				<Point>
					<coordinates>20.950917000000004,64.750244,0.0</coordinates>
				</Point>
			</Placemark>
			<Placemark>
				<name>Luleå</name>
				<description><![CDATA[För middagar anmäl dig här: https://app.invitationsdepartementet.se/signup/lulea För frågor kontakta Felicia och John på: lulea@invitationsdepartementet.se  Facebook: https://www.facebook.com/idlulea/?fref=ts]]></description>
				
				<Point>
					<coordinates>22.156702600000017,65.584819,0.0</coordinates>
				</Point>
			</Placemark>
			<Placemark>
				<name>Halle</name>
				<description><![CDATA[Dinners happening! Get in touch through https://www.facebook.com/KochHalle-cook-and-eat-together-486697998204429/ or via e-mail kochaktionen.in.halle@gmail.com]]></description>
				
				<Point>
					<coordinates>11.968802900000014,51.4969802,0.0</coordinates>
				</Point>
			</Placemark>
			<Placemark>
				<name>Gävle</name>
				<description><![CDATA[För middagar kontakta Lisa på gavle@invitationsdepartementet.se]]></description>
				
				<Point>
					<coordinates>17.141272599999983,60.6748796,0.0</coordinates>
				</Point>
			</Placemark>
			<Placemark>
				<name>Munkfors</name>
				<description><![CDATA[För middagar kontakta Samina och Sara på munkfors@invitationsdepartementet.se  Facebook: https://www.facebook.com/munkforsinvitationsdepartment/?fref=ts]]></description>
				
				<Point>
					<coordinates>13.531723,59.8354573,0.0</coordinates>
				</Point>
			</Placemark>
			<Placemark>
				<name>Kalmar</name>
				<description><![CDATA[För middagar maila Björn på kalmar@invitationsdepartementet.se]]></description>
				
				<Point>
					<coordinates>16.35677899999996,56.6634447,0.0</coordinates>
				</Point>
			</Placemark>
			<Placemark>
				<name>Ljusnarsberg</name>
				<description><![CDATA[För middagar maila Karin på ljusnarsberg@invitationsdepartementet.se]]></description>
				
				<Point>
					<coordinates>14.87777940000001,59.97529340000001,0.0</coordinates>
				</Point>
			</Placemark>
			<Placemark>
				<name>Varberg</name>
				<description><![CDATA[För middagar kontakta Charlotte på varberg@invitationsdepartementet.se  Facebook: https://www.facebook.com/invitationsdepartementetvarberg/?fref=ts]]></description>
				
				<Point>
					<coordinates>12.252090700000053,57.10711800000001,0.0</coordinates>
				</Point>
			</Placemark>
			<Placemark>
				<name>Mölndal</name>
				<description><![CDATA[För middagar kontakta Erica på molndal@invitationsdepartementet.se]]></description>
				
				<Point>
					<coordinates>12.016666999999984,57.65,0.0</coordinates>
				</Point>
			</Placemark>
			<Placemark>
				<name>Kramfors</name>
				<description><![CDATA[För middagar kontakta Stefan på kramfors@invitationsdepartementet.se          Eller anmäl dig på https://app.invitationsdepartementet.se/signup/kramfors]]></description>
				
				<Point>
					<coordinates>17.777390200000013,62.93207249999999,0.0</coordinates>
				</Point>
			</Placemark>
			<Placemark>
				<name>Östersund</name>
				<description><![CDATA[För middagar kontakta Jonna på ostersund@invitationsdepartementet.se]]></description>
				
				<Point>
					<coordinates>14.63606809999999,63.1766832,0.0</coordinates>
				</Point>
			</Placemark>
		</Folder>
		<Style id='icon-503-DB4436-normal'>
			<IconStyle>
				<color>ff3644DB</color>
				<scale>1.1</scale>
				<Icon>
					<href>http://www.gstatic.com/mapspro/images/stock/503-wht-blank_maps.png</href>
				</Icon>
				<hotSpot x='16' y='31' xunits='pixels' yunits='insetPixels'>
				</hotSpot>
			</IconStyle>
			<LabelStyle>
				<scale>0.0</scale>
			</LabelStyle>
		</Style>
		<Style id='icon-503-DB4436-highlight'>
			<IconStyle>
				<color>ff3644DB</color>
				<scale>1.1</scale>
				<Icon>
					<href>http://www.gstatic.com/mapspro/images/stock/503-wht-blank_maps.png</href>
				</Icon>
				<hotSpot x='16' y='31' xunits='pixels' yunits='insetPixels'>
				</hotSpot>
			</IconStyle>
			<LabelStyle>
				<scale>1.1</scale>
			</LabelStyle>
		</Style>
		<StyleMap id='icon-503-DB4436'>
			<Pair>
				<key>normal</key>
				<styleUrl>#icon-503-DB4436-normal</styleUrl>
			</Pair>
			<Pair>
				<key>highlight</key>
				<styleUrl>#icon-503-DB4436-highlight</styleUrl>
			</Pair>
		</StyleMap>
	</Document>
</kml>